City_ID,City,Country,Date,Lat,Lng,Max Temp,Humidity,Cloudiness,Wind Speed,Current Description,Rain inches (last 3 hrs),Snow inches (last 3 hrs)
0,Kapaa,US,2020-04-20 06:47:07,22.08,-159.32,75.2,69,75,2.28,broken clouds,0.0,0.0
1,Longyearbyen,SJ,2020-04-20 06:42:31,78.22,15.64,21.2,79,75,20.8,shower rain,0.0,0.0
2,Cape Town,ZA,2020-04-20 06:46:00,-33.93,18.42,63.0,77,75,16.11,broken clouds,0.0,0.0
3,Puerto Ayora,EC,2020-04-20 06:47:08,-0.74,-90.35,79.0,87,65,5.99,broken clouds,0.0,0.0
4,Show Low,US,2020-04-20 06:47:08,34.25,-110.03,43.0,52,1,9.17,clear sky,0.0,0.0
5,Saskylakh,RU,2020-04-20 06:47:08,71.92,114.08,25.97,95,16,3.09,few clouds,0.0,0.0
6,Rikitea,PF,2020-04-20 06:47:08,-23.12,-134.97,76.8,71,61,6.62,broken clouds,0.0,0.0
7,Busselton,AU,2020-04-20 06:47:08,-33.65,115.33,66.99,73,97,8.99,light rain,0.011811023622047244,0.0
8,San Cristobal,VE,2020-04-20 06:47:09,7.77,-72.22,66.31,63,84,1.34,light rain,0.024015748031496063,0.0
9,Sao Filipe,CV,2020-04-20 06:47:09,14.9,-24.5,70.47,75,0,15.88,clear sky,0.0,0.0
10,Esperance,AU,2020-04-20 06:47:09,-33.87,121.9,69.8,43,14,17.22,few clouds,0.0,0.0
11,Upernavik,GL,2020-04-20 06:47:09,72.79,-56.15,17.92,95,46,18.54,light snow,0.0,0.015748031496062995
12,Nurlat,RU,2020-04-20 06:47:09,54.43,50.81,47.23,51,62,1.74,broken clouds,0.0,0.0
13,Oranjemund,NA,2020-04-20 06:47:10,-28.55,16.43,59.95,86,17,2.48,few clouds,0.0,0.0
14,Honningsvag,NO,2020-04-20 06:47:10,70.98,25.97,39.2,69,75,23.04,shower rain,0.0,0.0
15,Iqaluit,CA,2020-04-20 06:47:10,63.75,-68.51,-11.0,76,5,2.68,clear sky,0.0,0.0
16,Bambous Virieux,MU,2020-04-20 06:47:11,-20.34,57.76,77.0,83,75,14.99,light intensity shower rain,0.0,0.0
17,Imbituba,BR,2020-04-20 06:47:11,-28.24,-48.67,62.6,100,1,5.82,clear sky,0.0,0.0
18,Hobart,AU,2020-04-20 06:46:35,-42.88,147.33,57.2,44,40,23.04,scattered clouds,0.0,0.0
19,Punta Arenas,CL,2020-04-20 06:47:11,-53.15,-70.92,42.8,75,40,28.86,scattered clouds,0.0,0.0
20,La Rioja,ES,2020-04-20 06:47:11,42.25,-2.5,53.6,87,90,4.7,overcast clouds,0.0,0.0
21,Ust-Ishim,RU,2020-04-20 06:47:12,57.69,71.17,53.73,46,25,4.61,scattered clouds,0.0,0.0
22,Parbhani,IN,2020-04-20 06:47:12,19.27,76.78,102.69,13,17,3.33,few clouds,0.0,0.0
23,Pontiac,US,2020-04-20 06:45:11,42.64,-83.29,32.0,63,1,3.36,clear sky,0.0,0.0
24,Port Alfred,ZA,2020-04-20 06:47:12,-33.59,26.89,72.0,64,0,1.01,clear sky,0.0,0.0
25,Baykit,RU,2020-04-20 06:47:12,61.67,96.37,40.03,65,36,6.38,scattered clouds,0.0,0.0
26,Qaanaaq,GL,2020-04-20 06:47:13,77.48,-69.36,14.59,82,62,10.51,broken clouds,0.0,0.0
27,Kodiak,US,2020-04-20 06:47:13,57.79,-152.41,42.8,87,90,11.41,overcast clouds,0.0,0.0
28,Odweyne,SO,2020-04-20 06:47:13,9.41,45.06,78.39,44,90,14.07,overcast clouds,0.0,0.0
29,Tres Arroyos,AR,2020-04-20 06:47:13,-38.37,-60.28,56.97,64,94,6.73,overcast clouds,0.0,0.0
30,Pangai,TO,2020-04-20 06:47:13,-19.8,-174.35,80.6,83,20,14.99,few clouds,0.0,0.0
31,Vila Franca Do Campo,PT,2020-04-20 06:47:13,37.72,-25.43,50.0,76,20,8.05,few clouds,0.0,0.0
32,Tasiilaq,GL,2020-04-20 06:47:14,65.61,-37.64,32.0,85,100,9.19,overcast clouds,0.0,0.0
33,Tilichiki,RU,2020-04-20 06:47:14,60.47,166.1,17.01,91,100,11.34,overcast clouds,0.0,0.0
34,Kudahuvadhoo,MV,2020-04-20 06:47:14,2.67,72.89,85.6,73,89,9.98,overcast clouds,0.0,0.0
35,Kamenka,RU,2020-04-20 06:47:14,51.32,42.77,46.0,68,54,1.99,broken clouds,0.0,0.0
36,Yellowknife,CA,2020-04-20 06:47:15,62.46,-114.35,10.4,66,75,8.05,broken clouds,0.0,0.0
37,Hithadhoo,MV,2020-04-20 06:47:15,-0.6,73.08,85.08,74,88,11.41,overcast clouds,0.0,0.0
38,Macas,EC,2020-04-20 06:47:15,-2.32,-78.12,63.73,55,22,1.79,few clouds,0.0,0.0
39,Xuddur,SO,2020-04-20 06:47:15,4.12,43.89,79.79,60,100,7.27,light rain,0.059842519685039376,0.0
40,Conway,US,2020-04-20 06:46:09,35.09,-92.44,55.4,100,75,4.7,broken clouds,0.0,0.0
41,Makokou,GA,2020-04-20 06:47:16,0.57,12.86,69.93,79,84,1.36,broken clouds,0.0,0.0
42,Nanortalik,GL,2020-04-20 06:47:16,60.14,-45.24,28.29,84,8,5.12,clear sky,0.0,0.0
43,Sinnamary,GF,2020-04-20 06:47:16,5.38,-52.95,77.7,89,100,13.91,moderate rain,0.28188976377952757,0.0
44,Nikolskoye,RU,2020-04-20 06:47:17,59.7,30.79,44.01,79,20,4.47,few clouds,0.0,0.0
45,Narsaq,GL,2020-04-20 06:47:17,60.92,-46.05,23.0,53,1,4.7,clear sky,0.0,0.0
46,Parabel,RU,2020-04-20 06:47:17,58.7,81.48,58.51,56,85,4.14,overcast clouds,0.0,0.0
47,Ushuaia,AR,2020-04-20 06:42:51,-54.8,-68.3,41.0,80,75,29.97,shower rain,0.0,0.0
48,Abreus,CU,2020-04-20 06:47:17,22.28,-80.57,77.0,88,31,3.36,scattered clouds,0.0,0.0
49,Chokurdakh,RU,2020-04-20 06:47:17,70.63,147.92,12.06,95,96,10.31,overcast clouds,0.0,0.0
50,Bardiyah,LY,2020-04-20 06:47:18,31.76,25.09,61.83,55,59,6.02,broken clouds,0.0,0.0
51,Bredasdorp,ZA,2020-04-20 06:47:18,-34.53,20.04,55.4,82,0,2.24,clear sky,0.0,0.0
52,Tacoronte,ES,2020-04-20 06:47:18,28.48,-16.41,57.99,93,75,25.28,broken clouds,0.0,0.0
53,Moree,AU,2020-04-20 06:47:18,-29.47,149.85,75.2,25,77,11.41,broken clouds,0.0,0.0
54,Lotofaga,WS,2020-04-20 06:47:18,-13.98,-171.86,80.01,94,54,17.76,light rain,0.11023622047244094,0.0
55,Mataura,NZ,2020-04-20 06:47:19,-46.19,168.86,54.0,83,66,4.0,broken clouds,0.0,0.0
56,Contamana,PE,2020-04-20 06:47:19,-7.33,-75.02,69.03,73,1,0.67,clear sky,0.0,0.0
57,Bundaberg,AU,2020-04-20 06:43:54,-24.85,152.35,84.2,32,0,5.82,clear sky,0.0,0.0
58,Victoria,HK,2020-04-20 06:43:53,22.29,114.16,88.0,44,13,7.0,few clouds,0.0,0.0
59,Jamestown,US,2020-04-20 06:47:19,42.1,-79.24,33.8,55,1,4.7,clear sky,0.0,0.0
60,East London,ZA,2020-04-20 06:46:29,-33.02,27.91,73.4,64,0,10.29,clear sky,0.0,0.0
61,Erdenet,MN,2020-04-20 06:47:20,49.03,104.08,33.01,37,51,14.03,broken clouds,0.0,0.0
62,Udachnyy,RU,2020-04-20 06:47:20,66.42,112.4,32.27,83,29,7.61,scattered clouds,0.0,0.0
63,Atuona,PF,2020-04-20 06:47:20,-9.8,-139.03,82.62,76,71,15.99,light rain,0.00826771653543307,0.0
64,Saint-Philippe,RE,2020-04-20 06:47:20,-21.36,55.77,77.0,78,75,27.51,broken clouds,0.0,0.0
65,Pulaski,US,2020-04-20 06:47:20,34.77,-92.3,54.0,93,20,4.5,few clouds,0.0,0.0
66,Leningradskiy,RU,2020-04-20 06:47:21,69.38,178.42,11.59,94,95,8.34,overcast clouds,0.0,0.0
67,Ocos,GT,2020-04-20 06:47:21,14.51,-92.19,81.64,70,59,3.4,broken clouds,0.0,0.0
68,Alofi,NU,2020-04-20 06:47:21,-19.06,-169.92,77.0,88,5,10.29,light rain,0.007086614173228346,0.0
69,Kathmandu,NP,2020-04-20 06:43:42,27.72,85.32,78.8,34,20,3.36,few clouds,0.0,0.0
70,Chapais,CA,2020-04-20 06:47:21,49.78,-74.85,5.0,71,90,8.05,overcast clouds,0.0,0.0
71,Makakilo City,US,2020-04-20 06:47:22,21.35,-158.09,77.0,69,40,3.36,scattered clouds,0.0,0.0
72,Chingirlau,KZ,2020-04-20 06:47:22,51.09,54.08,54.14,58,100,4.97,overcast clouds,0.0,0.0
73,Cherskiy,RU,2020-04-20 06:47:22,68.75,161.3,13.89,95,100,5.99,overcast clouds,0.0,0.0
74,Svolvaer,NO,2020-04-20 06:47:22,68.23,14.57,43.0,100,75,12.75,broken clouds,0.0,0.0
75,Altay,CN,2020-04-20 06:47:22,47.87,88.12,58.87,28,0,1.79,clear sky,0.0,0.0
76,Conceicao Do Araguaia,BR,2020-04-20 06:47:23,-8.26,-49.26,77.0,88,40,6.93,scattered clouds,0.0,0.0
77,Tazovskiy,RU,2020-04-20 06:47:23,67.47,78.7,35.17,95,90,10.96,overcast clouds,0.0,0.0
78,Half Moon Bay,US,2020-04-20 06:47:23,37.46,-122.43,55.4,76,90,3.36,overcast clouds,0.0,0.0
79,Artesia,US,2020-04-20 06:47:23,33.87,-118.08,61.0,67,90,11.41,overcast clouds,0.0,0.0
80,Vaini,TO,2020-04-20 06:47:23,-21.2,-175.2,78.8,78,40,9.17,scattered clouds,0.0,0.0
81,Hermanus,ZA,2020-04-20 06:47:23,-34.42,19.23,62.01,75,11,11.99,few clouds,0.0,0.0
82,Minsk,BY,2020-04-20 06:46:35,53.9,27.57,37.4,74,0,8.95,clear sky,0.0,0.0
83,Neringa,LT,2020-04-20 06:45:17,55.37,21.06,44.6,70,20,11.18,few clouds,0.0,0.0
84,Duldurga,RU,2020-04-20 06:47:24,50.68,113.59,30.25,51,97,16.8,overcast clouds,0.0,0.0
85,Thompson,CA,2020-04-20 06:47:24,55.74,-97.86,12.2,92,90,3.36,light snow,0.0,0.0
86,Arraial Do Cabo,BR,2020-04-20 06:47:24,-22.97,-42.03,70.61,81,46,7.05,scattered clouds,0.0,0.0
87,Katsuura,JP,2020-04-20 06:47:25,35.13,140.3,59.0,100,75,6.93,light intensity shower rain,0.0,0.0
88,Fairbanks,US,2020-04-20 06:47:25,64.84,-147.72,39.99,100,90,6.38,light rain,0.0,0.0
89,Seguela,CI,2020-04-20 06:47:25,7.96,-6.67,73.53,81,84,5.59,broken clouds,0.0,0.0
90,Airai,TL,2020-04-20 06:47:25,-8.93,125.41,72.64,47,30,3.29,scattered clouds,0.0,0.0
91,Asaba,NG,2020-04-20 06:47:25,6.2,6.73,76.06,89,99,3.11,overcast clouds,0.0,0.0
92,Lebu,CL,2020-04-20 06:47:25,-37.62,-73.65,55.72,69,100,9.55,overcast clouds,0.0,0.0
93,San Patricio,MX,2020-04-20 06:47:26,19.22,-104.7,73.06,78,0,6.85,clear sky,0.0,0.0
94,Great Yarmouth,GB,2020-04-20 06:47:26,52.61,1.73,52.0,75,0,5.99,clear sky,0.0,0.0
95,Saint-Pierre,RE,2020-04-20 06:47:26,-21.34,55.48,77.0,78,75,27.51,broken clouds,0.0,0.0
96,Saint George,US,2020-04-20 06:47:26,37.1,-113.58,61.0,48,75,4.7,broken clouds,0.0,0.0
97,Meulaboh,ID,2020-04-20 06:47:26,4.14,96.13,88.2,62,9,4.36,light rain,0.00826771653543307,0.0
98,Jinhua,CN,2020-04-20 06:47:26,29.11,119.65,76.91,52,39,4.65,scattered clouds,0.0,0.0
99,Point Fortin,TT,2020-04-20 06:47:27,10.18,-61.68,75.2,83,20,11.52,few clouds,0.0,0.0
100,Svetlaya,RU,2020-04-20 06:47:27,46.54,138.33,41.92,78,100,8.23,overcast clouds,0.0,0.0
101,Gravelbourg,CA,2020-04-20 06:47:27,49.88,-106.55,40.41,58,61,6.78,broken clouds,0.0,0.0
102,Dikson,RU,2020-04-20 06:47:27,73.51,80.55,33.03,96,93,14.9,overcast clouds,0.0,0.0
103,Barrow,US,2020-04-20 06:47:11,71.29,-156.79,8.6,78,90,5.82,overcast clouds,0.0,0.0
104,Rocha,UY,2020-04-20 06:47:28,-34.48,-54.33,58.48,91,0,5.84,clear sky,0.0,0.0
105,Rongcheng,CN,2020-04-20 06:47:28,30.63,117.85,69.01,81,70,7.72,broken clouds,0.0,0.0
106,Avarua,CK,2020-04-20 06:47:28,-21.21,-159.78,80.6,74,4,9.17,clear sky,0.0,0.0
107,Berlevag,NO,2020-04-20 06:47:28,70.86,29.09,39.2,80,75,26.4,broken clouds,0.0,0.0
108,Puerto Escondido,MX,2020-04-20 06:47:28,15.85,-97.07,78.08,71,8,2.21,clear sky,0.0,0.0
109,Albany,US,2020-04-20 06:45:23,42.6,-73.97,45.0,61,96,8.14,light rain,0.011811023622047244,0.0
110,Carbonia,IT,2020-04-20 06:47:29,39.17,8.52,66.2,72,75,25.28,broken clouds,0.0,0.0
111,Bilibino,RU,2020-04-20 06:47:29,68.05,166.44,10.44,88,44,4.25,scattered clouds,0.0,0.0
112,Zeya,RU,2020-04-20 06:47:29,53.75,127.27,29.75,85,100,17.58,overcast clouds,0.0,0.0
113,Westport,US,2020-04-20 06:47:29,41.14,-73.36,53.01,66,40,5.82,scattered clouds,0.0,0.0
114,Caravelas,BR,2020-04-20 06:47:29,-17.71,-39.25,74.23,80,37,11.07,scattered clouds,0.0,0.0
115,Tecoanapa,MX,2020-04-20 06:47:30,16.52,-98.75,77.02,78,0,3.58,clear sky,0.0,0.0
116,Kaitangata,NZ,2020-04-20 06:47:30,-46.28,169.85,55.99,66,74,8.01,broken clouds,0.0,0.0
117,Ancud,CL,2020-04-20 06:47:30,-41.87,-73.82,41.0,100,20,4.21,few clouds,0.0,0.0
118,Dingle,PH,2020-04-20 06:47:30,11.0,122.67,90.52,57,86,14.45,light rain,0.004330708661417323,0.0
119,Alice Springs,AU,2020-04-20 06:47:30,-23.7,133.88,98.6,14,40,5.82,scattered clouds,0.0,0.0
120,Skuodas,LT,2020-04-20 06:47:31,56.27,21.53,44.6,87,0,2.24,clear sky,0.0,0.0
121,Mahebourg,MU,2020-04-20 06:47:31,-20.41,57.7,77.0,83,75,14.99,light intensity shower rain,0.0,0.0
122,Laborie,LC,2020-04-20 06:47:31,13.75,-60.98,75.99,72,12,8.01,few clouds,0.0,0.0
123,Ekhabi,RU,2020-04-20 06:47:31,53.51,142.97,30.78,99,100,14.2,light snow,0.0,0.027559055118110236
124,Pisco,PE,2020-04-20 06:47:31,-13.7,-76.22,66.99,82,0,10.29,clear sky,0.0,0.0
125,Bluff,NZ,2020-04-20 06:47:32,-46.6,168.33,54.0,83,63,4.0,light rain,0.014960629921259844,0.0
126,Sitka,US,2020-04-20 06:47:32,57.05,-135.33,42.8,87,90,10.29,light intensity drizzle,0.0,0.0
127,Hilo,US,2020-04-20 06:47:32,19.73,-155.09,75.2,69,90,6.46,overcast clouds,0.0,0.0
128,Butaritari,KI,2020-04-20 06:47:32,3.07,172.79,84.07,70,16,7.16,few clouds,0.0,0.0
129,Niamey,NE,2020-04-20 06:47:32,13.51,2.11,86.0,45,1,8.05,clear sky,0.0,0.0
130,New Norfolk,AU,2020-04-20 06:47:33,-42.78,147.06,55.0,71,61,5.01,light rain,0.01141732283464567,0.0
131,Lodja,CD,2020-04-20 06:45:51,-3.48,23.43,69.15,84,100,1.16,light rain,0.006692913385826772,0.0
132,Narrabri,AU,2020-04-20 06:47:33,-30.32,149.78,71.6,30,40,8.05,scattered clouds,0.0,0.0
133,Bulgan,MN,2020-04-20 06:47:33,48.81,103.53,35.6,35,86,13.98,overcast clouds,0.0,0.0
134,Ilulissat,GL,2020-04-20 06:47:34,69.22,-51.1,24.8,53,100,26.4,light shower snow,0.0,0.0
135,San Policarpo,PH,2020-04-20 06:47:34,12.18,125.51,84.16,77,76,11.03,light rain,0.021259842519685043,0.0
136,Mirnyy,RU,2020-04-20 06:47:34,62.54,113.96,33.8,40,89,6.71,overcast clouds,0.0,0.0
137,Manta,EC,2020-04-20 06:47:34,-0.95,-80.73,76.37,82,44,3.91,scattered clouds,0.0,0.0
138,Pevek,RU,2020-04-20 06:47:34,69.7,170.31,12.09,95,100,9.04,light snow,0.0,0.006299212598425198
139,Talnakh,RU,2020-04-20 06:47:34,69.49,88.4,37.4,64,100,31.32,overcast clouds,0.0,0.0
140,Antalaha,MG,2020-04-20 06:47:35,-14.9,50.28,79.81,76,92,6.76,light rain,0.10629921259842522,0.0
141,Saint Anthony,US,2020-04-20 06:47:35,45.02,-93.22,39.2,51,1,4.7,clear sky,0.0,0.0
142,Nantucket,US,2020-04-20 06:47:35,41.28,-70.1,46.99,87,90,16.11,overcast clouds,0.0,0.0
143,Port Elizabeth,ZA,2020-04-20 06:47:35,-33.92,25.57,71.6,56,0,9.17,clear sky,0.0,0.0
144,Raga,SS,2020-04-20 06:47:35,8.46,25.68,79.25,53,83,6.8,broken clouds,0.0,0.0
145,Petropavlovsk-Kamchatskiy,RU,2020-04-20 06:47:36,53.05,158.65,37.4,34,22,13.42,few clouds,0.0,0.0
146,Marawi,PH,2020-04-20 06:47:36,8.0,124.29,78.69,67,98,4.03,moderate rain,0.2503937007874016,0.0
147,Taoudenni,ML,2020-04-20 06:47:36,22.68,-3.98,72.91,27,0,5.91,clear sky,0.0,0.0
148,Saint-Francois,FR,2020-04-20 06:47:36,46.42,3.91,55.4,87,90,0.83,mist,0.0,0.0
149,Laguna,US,2020-04-20 06:47:36,38.42,-121.42,55.99,76,1,6.93,clear sky,0.0,0.0
150,Manado,ID,2020-04-20 06:47:36,1.49,124.85,77.0,94,40,2.24,thunderstorm with light rain,0.0,0.0
151,Bethel,US,2020-04-20 06:47:37,41.37,-73.41,51.8,74,75,5.75,broken clouds,0.0,0.0
152,Kavieng,PG,2020-04-20 06:47:37,-2.57,150.8,84.74,71,57,5.41,light rain,0.025590551181102365,0.0
153,Coahuayana,MX,2020-04-20 06:47:37,18.73,-103.68,72.5,77,1,2.71,clear sky,0.0,0.0
154,Hailey,US,2020-04-20 06:44:59,43.52,-114.32,37.4,39,1,9.17,clear sky,0.0,0.0
155,Nisia Floresta,BR,2020-04-20 06:47:38,-6.09,-35.21,77.0,94,40,2.24,scattered clouds,0.0,0.0
156,Severodvinsk,RU,2020-04-20 06:47:38,64.56,39.83,33.8,86,75,6.71,broken clouds,0.0,0.0
157,Topaipi,CO,2020-04-20 06:47:38,5.33,-74.3,64.06,63,92,3.31,light rain,0.042913385826771656,0.0
158,Nemuro,JP,2020-04-20 06:47:38,43.32,145.57,39.2,86,75,11.41,light intensity shower rain,0.0,0.0
159,Praia,CV,2020-04-20 06:47:39,14.92,-23.51,68.0,68,20,11.41,few clouds,0.0,0.0
160,Leh,IN,2020-04-20 06:47:39,34.17,77.58,37.53,16,87,1.14,overcast clouds,0.0,0.0
161,Provideniya,RU,2020-04-20 06:47:39,64.38,-173.3,21.36,95,100,11.59,light snow,0.0,0.012598425196850395
162,Goderich,CA,2020-04-20 06:47:39,43.75,-81.72,33.01,67,0,8.3,clear sky,0.0,0.0
163,Xingcheng,CN,2020-04-20 06:47:39,40.62,120.72,54.79,34,0,22.46,clear sky,0.0,0.0
164,North Battleford,CA,2020-04-20 06:47:39,52.78,-108.28,35.6,74,1,5.82,clear sky,0.0,0.0
165,Prnjavor,BA,2020-04-20 06:44:01,44.87,17.66,53.6,54,100,3.36,light rain,0.018110236220472444,0.0
166,Ballina,AU,2020-04-20 06:47:40,-28.87,153.57,78.8,36,81,5.82,broken clouds,0.0,0.0
167,Daru,PG,2020-04-20 06:47:40,-9.08,143.21,84.49,74,73,8.66,light rain,0.006692913385826772,0.0
168,Faanui,PF,2020-04-20 06:47:40,-16.48,-151.75,82.96,76,89,21.74,light rain,0.009448818897637795,0.0
169,Tulagi,SB,2020-04-20 06:47:41,-9.1,160.15,78.8,88,75,6.93,broken clouds,0.0,0.0
170,Ponta Do Sol,PT,2020-04-20 06:47:41,32.67,-17.1,60.01,52,17,11.01,light rain,0.006692913385826772,0.0
171,Norman Wells,CA,2020-04-20 06:47:41,65.28,-126.83,26.6,100,90,3.36,light snow,0.0,0.0
172,Moron,AR,2020-04-20 06:47:17,-34.65,-58.62,62.01,93,0,5.21,clear sky,0.0,0.0
173,Cockburn Town,TC,2020-04-20 06:46:38,21.46,-71.14,79.09,82,38,18.48,scattered clouds,0.0,0.0
174,Bani,DO,2020-04-20 06:47:42,18.28,-70.33,77.0,88,13,3.0,light rain,0.005905511811023622,0.0
175,Vao,NC,2020-04-20 06:47:42,-22.67,167.48,71.26,92,100,22.75,heavy intensity rain,1.6070866141732285,0.0
176,Carnarvon,AU,2020-04-20 06:47:42,-24.87,113.63,80.6,51,30,18.34,scattered clouds,0.0,0.0
177,Krasnoselkup,RU,2020-04-20 06:47:42,65.7,82.47,40.5,92,100,11.36,light rain,0.015748031496062995,0.0
178,Georgetown,MY,2020-04-20 06:47:42,5.41,100.34,93.2,75,20,6.93,few clouds,0.0,0.0
179,Padang,ID,2020-04-20 06:47:43,-0.95,100.35,88.03,67,14,2.84,light rain,0.043700787401574806,0.0
180,Chazuta,PE,2020-04-20 06:47:43,-6.57,-76.14,70.81,65,9,1.5,clear sky,0.0,0.0
181,Anadyr,RU,2020-04-20 06:47:43,64.75,177.48,19.4,73,20,8.95,few clouds,0.0,0.0
182,Asau,RO,2020-04-20 06:47:43,46.43,26.4,46.4,49,71,17.22,broken clouds,0.0,0.0
183,Laguna De Perlas,NI,2020-04-20 06:47:43,12.34,-83.67,77.95,79,1,7.65,clear sky,0.0,0.0
184,Haines Junction,CA,2020-04-20 06:47:44,60.75,-137.51,38.75,63,87,7.78,overcast clouds,0.0,0.0
185,Vardo,NO,2020-04-20 06:47:44,70.37,31.11,39.2,77,93,13.87,overcast clouds,0.0,0.0
186,Mar Del Plata,AR,2020-04-20 06:45:15,-38.0,-57.56,60.01,87,89,4.85,overcast clouds,0.0,0.0
187,Tessalit,ML,2020-04-20 06:47:44,20.2,1.01,75.52,38,14,9.28,few clouds,0.0,0.0
188,Lorengau,PG,2020-04-20 06:47:44,-2.02,147.27,85.41,69,34,4.76,light rain,0.011023622047244096,0.0
189,Salalah,OM,2020-04-20 06:47:45,17.02,54.09,87.8,62,40,9.17,scattered clouds,0.0,0.0
190,Torbay,CA,2020-04-20 06:47:45,47.67,-52.73,35.01,100,90,14.99,light rain,0.0,0.0
191,Kamen-Rybolov,RU,2020-04-20 06:47:45,44.75,132.04,42.76,84,100,7.49,light rain,0.07362204724409449,0.0
192,Opuwo,NA,2020-04-20 06:47:45,-18.06,13.84,70.3,52,95,5.73,light rain,0.006299212598425198,0.0
193,Sivaki,RU,2020-04-20 06:47:45,52.63,126.75,27.88,88,100,18.14,light snow,0.0,0.005905511811023622
194,Tuatapere,NZ,2020-04-20 06:47:46,-46.13,167.68,54.0,83,19,4.0,few clouds,0.0,0.0
195,Kaeo,NZ,2020-04-20 06:47:46,-35.1,173.78,61.0,95,100,1.99,moderate rain,0.16377952755905514,0.0
196,Khandyga,RU,2020-04-20 06:47:46,62.67,135.6,22.59,84,12,3.44,few clouds,0.0,0.0
197,Avera,US,2020-04-20 06:47:46,33.19,-82.53,59.0,95,75,7.56,heavy intensity rain,0.0,0.0
198,Mglin,RU,2020-04-20 06:47:47,53.06,32.85,39.16,68,0,11.45,clear sky,0.0,0.0
199,Ovalle,CL,2020-04-20 06:47:47,-30.6,-71.2,57.11,71,1,0.63,clear sky,0.0,0.0
200,Iquitos,PE,2020-04-20 06:47:47,-3.75,-73.25,71.6,94,20,0.85,mist,0.0,0.0
201,Seddon,AU,2020-04-20 06:47:47,-37.81,144.89,66.2,42,50,14.99,scattered clouds,0.0,0.0
202,Narok,KE,2020-04-20 06:47:47,-1.08,35.86,59.88,53,100,1.66,moderate rain,0.20590551181102365,0.0
203,Touros,BR,2020-04-20 06:47:47,-5.2,-35.46,75.2,94,40,4.7,scattered clouds,0.0,0.0
204,Nishihara,JP,2020-04-20 06:47:48,26.18,127.76,71.6,73,75,6.93,broken clouds,0.0,0.0
205,Mnogovershinnyy,RU,2020-04-20 06:47:48,53.94,139.92,24.21,96,100,16.2,snow,0.0,0.07401574803149606
206,Junction City,US,2020-04-20 06:47:48,39.03,-96.83,53.6,50,1,11.41,clear sky,0.0,0.0
207,Henties Bay,NA,2020-04-20 06:47:48,-22.12,14.28,60.01,95,33,4.83,light rain,0.013779527559055118,0.0
208,General Roca,AR,2020-04-20 06:47:48,-39.03,-67.58,57.2,36,63,2.24,broken clouds,0.0,0.0
209,Thinadhoo,MV,2020-04-20 06:47:48,0.53,72.93,85.41,71,54,9.06,broken clouds,0.0,0.0
210,Taywarah,AF,2020-04-20 06:47:49,33.35,64.42,48.15,21,0,3.33,clear sky,0.0,0.0
211,Jishou,CN,2020-04-20 06:47:49,28.32,109.72,58.15,78,99,7.83,light rain,0.05708661417322835,0.0
212,Mukhen,RU,2020-04-20 06:47:49,48.1,136.1,61.03,30,100,6.64,overcast clouds,0.0,0.0
213,Mariental,NA,2020-04-20 06:47:49,-24.63,17.97,73.29,31,43,10.47,scattered clouds,0.0,0.0
214,Necochea,AR,2020-04-20 06:47:49,-38.55,-58.74,57.74,79,95,6.4,overcast clouds,0.0,0.0
215,Husavik,IS,2020-04-20 06:47:49,66.04,-17.34,44.6,75,4,23.04,clear sky,0.0,0.0
216,Marienburg,PL,2020-04-20 06:47:50,54.04,19.03,46.0,79,0,1.01,clear sky,0.0,0.0
217,Penzance,GB,2020-04-20 06:47:50,50.12,-5.54,50.0,71,98,13.87,overcast clouds,0.0,0.0
218,Karratha,AU,2020-04-20 06:47:50,-20.74,116.85,88.61,48,97,10.85,overcast clouds,0.0,0.0
219,Malakal,SS,2020-04-20 06:47:50,9.53,31.66,86.54,43,97,4.99,overcast clouds,0.0,0.0
220,Grindavik,IS,2020-04-20 06:47:51,63.84,-22.43,46.4,100,90,27.51,light rain,0.0,0.0
221,Mayumba,GA,2020-04-20 06:47:51,-3.43,10.66,78.58,85,100,5.97,light rain,0.08582677165354331,0.0
222,Bafata,GW,2020-04-20 06:47:51,12.17,-14.75,70.36,65,47,2.95,scattered clouds,0.0,0.0
223,Xichang,CN,2020-04-20 06:47:51,27.9,102.26,79.45,18,28,7.72,scattered clouds,0.0,0.0
224,San Jeronimo,PE,2020-04-20 06:47:51,-11.95,-75.28,41.25,28,45,0.56,scattered clouds,0.0,0.0
225,Lompoc,US,2020-04-20 06:45:08,34.64,-120.46,53.6,81,90,4.7,overcast clouds,0.0,0.0
226,Kruisfontein,ZA,2020-04-20 06:47:52,-34.0,24.73,68.2,49,0,1.9,clear sky,0.0,0.0
227,Kununurra,AU,2020-04-20 06:47:52,-15.77,128.73,102.2,22,40,14.99,scattered clouds,0.0,0.0
228,Khatanga,RU,2020-04-20 06:47:52,71.97,102.5,33.03,98,30,5.75,scattered clouds,0.0,0.0
229,Verkhoyansk,RU,2020-04-20 06:47:52,67.54,133.38,22.71,90,94,5.64,overcast clouds,0.0,0.0
230,Kizukuri,JP,2020-04-20 06:47:52,40.81,140.39,52.0,71,75,4.7,light rain,0.0,0.0
231,Valparaiso,CL,2020-04-20 06:47:52,-33.04,-71.63,55.4,93,0,4.7,clear sky,0.0,0.0
232,Mildura,AU,2020-04-20 06:47:53,-34.2,142.15,73.4,43,100,8.05,overcast clouds,0.0,0.0
233,Tiksi,RU,2020-04-20 06:47:53,71.69,128.87,21.16,94,100,6.73,overcast clouds,0.0,0.0
234,Prince Rupert,CA,2020-04-20 06:47:53,54.32,-130.32,46.4,87,90,5.82,overcast clouds,0.0,0.0
235,Lubao,PH,2020-04-20 06:47:53,14.92,120.55,96.8,44,75,2.24,broken clouds,0.0,0.0
236,Foz,ES,2020-04-20 06:47:54,43.57,-7.25,50.0,1,55,3.62,broken clouds,0.0,0.0
237,Jesup,US,2020-04-20 06:47:54,31.61,-81.89,66.2,88,90,6.85,thunderstorm,0.0,0.0
238,Sola,VU,2020-04-20 06:47:54,-13.88,167.55,83.62,67,21,2.64,few clouds,0.0,0.0
239,Dombarovskiy,RU,2020-04-20 06:47:54,50.76,59.54,49.68,86,100,10.16,moderate rain,0.2488188976377953,0.0
240,Oksfjord,NO,2020-04-20 06:47:54,70.24,22.35,41.0,75,40,27.51,scattered clouds,0.0,0.0
241,Karaton,ID,2020-04-20 06:47:55,-6.34,106.1,91.4,55,20,12.75,few clouds,0.0,0.0
242,Bonavista,CA,2020-04-20 06:47:55,48.65,-53.11,33.28,96,100,27.78,moderate rain,0.1767716535433071,0.0
243,Kokopo,PG,2020-04-20 06:47:55,-4.35,152.26,82.85,77,96,3.27,moderate rain,0.1283464566929134,0.0
244,Grafton,US,2020-04-20 06:47:55,42.21,-71.69,46.99,65,1,11.41,clear sky,0.0,0.0
245,Amherstburg,CA,2020-04-20 06:47:55,42.12,-83.05,32.0,74,1,4.7,clear sky,0.0,0.0
246,San Fernando,PH,2020-04-20 06:47:55,15.03,120.69,96.8,44,75,2.24,broken clouds,0.0,0.0
247,Praia Da Vitoria,PT,2020-04-20 06:47:56,38.73,-27.07,51.8,81,20,10.07,few clouds,0.0,0.0
248,Kimbe,PG,2020-04-20 06:47:56,-5.55,150.14,84.29,78,88,1.54,moderate rain,0.1826771653543307,0.0
249,Kieta,PG,2020-04-20 06:47:56,-6.22,155.63,82.99,74,93,2.89,moderate rain,0.131496062992126,0.0
250,Clyde River,CA,2020-04-20 06:47:56,70.47,-68.59,-5.8,70,1,2.24,clear sky,0.0,0.0
251,Tuktoyaktuk,CA,2020-04-20 06:47:56,69.45,-133.04,6.26,95,100,3.74,overcast clouds,0.0,0.0
252,Hasaki,JP,2020-04-20 06:47:56,35.73,140.83,51.8,100,75,9.17,light intensity shower rain,0.0,0.0
253,Bojnurd,IR,2020-04-20 06:47:57,37.47,57.33,64.4,45,20,6.93,few clouds,0.0,0.0
254,Pangnirtung,CA,2020-04-20 06:47:57,66.15,-65.71,3.43,76,59,4.36,broken clouds,0.0,0.0
255,Port-Gentil,GA,2020-04-20 06:47:57,-0.72,8.78,82.4,88,40,3.36,thunderstorm,0.0,0.0
256,Yeppoon,AU,2020-04-20 06:43:15,-23.13,150.73,84.2,62,75,6.93,broken clouds,0.0,0.0
257,Ribeira Grande,PT,2020-04-20 06:47:57,38.52,-28.7,51.8,71,20,10.29,few clouds,0.0,0.0
258,Peace River,CA,2020-04-20 06:45:31,56.25,-117.29,42.8,78,90,6.93,overcast clouds,0.0,0.0
259,Hailar,CN,2020-04-20 06:47:58,49.2,119.7,29.17,59,100,22.62,overcast clouds,0.0,0.0
260,Baruun-Urt,MN,2020-04-20 06:47:58,46.68,113.28,28.49,54,93,20.15,light snow,0.0,0.01889763779527559
261,Fortuna,US,2020-04-20 06:47:58,40.6,-124.16,51.01,93,90,3.36,overcast clouds,0.0,0.0
262,Port Macquarie,AU,2020-04-20 06:47:58,-31.43,152.92,73.99,67,99,6.02,overcast clouds,0.0,0.0
263,Requena,ES,2020-04-20 06:47:58,39.49,-1.1,57.0,94,45,4.59,scattered clouds,0.0,0.0
264,Zapolyarnyy,RU,2020-04-20 06:47:58,69.42,30.81,37.4,69,20,21.92,few clouds,0.0,0.0
265,Barhi,IN,2020-04-20 06:47:59,23.9,80.8,100.51,10,100,5.88,overcast clouds,0.0,0.0
266,Chuy,UY,2020-04-20 06:47:59,-33.7,-53.46,63.68,85,0,9.28,clear sky,0.0,0.0
267,Bjelovar,HR,2020-04-20 06:47:59,45.9,16.85,48.99,91,100,1.01,overcast clouds,0.0,0.0
268,Fez,MA,2020-04-20 06:45:02,34.04,-5.0,53.6,76,40,13.87,scattered clouds,0.0,0.0
269,Santa Cruz,BO,2020-04-20 06:47:59,-17.8,-63.17,66.2,82,1,3.36,clear sky,0.0,0.0
270,Sao Miguel Do Araguaia,BR,2020-04-20 06:48:00,-13.28,-50.16,71.33,88,92,2.04,light rain,0.10078740157480316,0.0
271,Vila Velha,BR,2020-04-20 06:48:00,-20.33,-40.29,73.0,83,41,1.12,scattered clouds,0.0,0.0
272,Cidreira,BR,2020-04-20 06:48:00,-30.18,-50.21,65.88,86,0,14.16,clear sky,0.0,0.0
273,Arrecife,ES,2020-04-20 06:48:00,28.96,-13.55,64.4,68,75,5.82,broken clouds,0.0,0.0
274,Dunedin,NZ,2020-04-20 06:46:09,-45.87,170.5,55.99,54,81,1.01,broken clouds,0.0,0.0
275,Gao,ML,2020-04-20 06:43:28,16.64,1.64,84.49,32,45,7.7,scattered clouds,0.0,0.0
276,Plouzane,FR,2020-04-20 06:48:01,48.38,-4.62,50.0,93,90,13.87,overcast clouds,0.0,0.0
277,Alyangula,AU,2020-04-20 06:48:01,-13.85,136.42,93.2,38,21,9.17,few clouds,0.0,0.0
278,Vila Do Maio,CV,2020-04-20 06:48:01,15.13,-23.22,68.0,68,20,11.41,few clouds,0.0,0.0
279,Lynchburg,US,2020-04-20 06:46:25,37.41,-79.14,53.01,81,90,0.96,overcast clouds,0.0,0.0
280,Charters Towers,AU,2020-04-20 06:48:01,-20.1,146.27,88.29,20,85,3.18,overcast clouds,0.0,0.0
281,Beira,MZ,2020-04-20 06:48:01,-19.84,34.84,75.2,78,20,10.29,few clouds,0.0,0.0
282,Inta,RU,2020-04-20 06:48:02,66.03,60.17,34.92,96,100,9.1,light snow,0.0,0.005511811023622048
283,Wajima,JP,2020-04-20 06:48:02,37.4,136.9,53.6,93,75,19.46,light intensity shower rain,0.0,0.0
284,Cabo San Lucas,MX,2020-04-20 06:48:02,22.89,-109.91,68.0,65,43,11.77,scattered clouds,0.0,0.0
285,Chik,RU,2020-04-20 06:48:03,54.99,82.43,68.0,18,3,4.47,clear sky,0.0,0.0
286,Lavrentiya,RU,2020-04-20 06:48:03,65.58,-171.0,16.0,93,98,6.69,overcast clouds,0.0,0.0
287,Sioux Lookout,CA,2020-04-20 06:48:03,50.1,-91.92,32.0,92,75,11.41,light snow,0.0,0.0
288,Nuuk,GL,2020-04-20 06:48:03,64.18,-51.72,32.0,87,57,20.8,broken clouds,0.0,0.0
289,Castro,BR,2020-04-20 06:43:23,-24.79,-50.01,55.0,69,66,5.17,broken clouds,0.0,0.0
290,Jacareacanga,BR,2020-04-20 06:48:04,-6.22,-57.75,71.13,93,79,1.07,broken clouds,0.0,0.0
291,Kidal,ML,2020-04-20 06:48:04,18.44,1.41,78.71,30,22,11.81,few clouds,0.0,0.0
292,Simao,CN,2020-04-20 06:48:04,22.79,100.97,90.34,15,1,12.39,clear sky,0.0,0.0
293,Dudhani,IN,2020-04-20 06:48:04,17.37,76.37,100.4,17,30,4.36,scattered clouds,0.0,0.0
294,Saldanha,ZA,2020-04-20 06:48:04,-33.01,17.94,59.0,78,75,5.82,broken clouds,0.0,0.0
295,Gavle,SE,2020-04-20 06:48:05,60.67,17.14,44.37,68,47,4.59,scattered clouds,0.0,0.0
296,Copiapo,CL,2020-04-20 06:48:05,-27.37,-70.33,60.8,82,0,3.36,clear sky,0.0,0.0
297,San Luis,AR,2020-04-20 06:48:05,-33.3,-66.34,59.9,53,0,4.14,clear sky,0.0,0.0
298,East Wenatchee Bench,US,2020-04-20 06:48:05,47.43,-120.28,53.6,50,1,6.93,clear sky,0.0,0.0
299,Ketchikan,US,2020-04-20 06:48:05,55.34,-131.65,46.4,93,90,8.05,overcast clouds,0.0,0.0
300,Port Hedland,AU,2020-04-20 06:48:05,-20.32,118.57,95.0,44,56,14.99,broken clouds,0.0,0.0
301,Tzaneen,ZA,2020-04-20 06:48:06,-23.83,30.16,57.2,82,15,3.36,few clouds,0.0,0.0
302,Rawson,AR,2020-04-20 06:48:06,-43.3,-65.1,57.31,44,48,27.11,scattered clouds,0.0,0.0
303,Strezhevoy,RU,2020-04-20 06:48:06,60.73,77.59,44.6,87,20,6.71,few clouds,0.0,0.0
304,Schkeuditz,DE,2020-04-20 06:48:06,51.4,12.22,46.0,52,0,11.41,clear sky,0.0,0.0
305,Fort Nelson,CA,2020-04-20 06:48:06,58.81,-122.7,48.2,49,75,5.82,broken clouds,0.0,0.0
306,Kayerkan,RU,2020-04-20 06:48:06,69.35,87.76,37.4,64,99,31.32,overcast clouds,0.0,0.0
307,Solnechnyy,RU,2020-04-20 06:48:07,50.72,136.63,33.13,76,100,9.69,overcast clouds,0.0,0.0
308,Cheney,US,2020-04-20 06:45:15,47.49,-117.58,53.6,58,40,4.7,scattered clouds,0.0,0.0
309,Manokwari,ID,2020-04-20 06:48:07,-0.87,134.08,85.06,70,17,6.13,light rain,0.05039370078740158,0.0
310,Hamilton,US,2020-04-20 06:48:07,39.18,-84.53,46.99,75,90,9.17,overcast clouds,0.0,0.0
311,Kapoeta,SS,2020-04-20 06:48:07,4.77,33.59,80.76,41,93,1.66,overcast clouds,0.0,0.0
312,Belmonte,BR,2020-04-20 06:48:08,-15.86,-38.88,71.6,88,71,8.05,light rain,0.01889763779527559,0.0
313,Darhan,MN,2020-04-20 06:48:08,49.49,105.92,35.42,46,99,15.75,overcast clouds,0.0,0.0
314,Hobyo,SO,2020-04-20 06:48:08,5.35,48.53,87.04,64,97,7.43,light rain,0.01732283464566929,0.0
315,Naze,JP,2020-04-20 06:48:08,28.37,129.48,71.6,64,40,12.75,scattered clouds,0.0,0.0
316,Siocon,PH,2020-04-20 06:48:08,7.71,122.14,84.49,74,70,3.24,light rain,0.04921259842519685,0.0
317,Beringovskiy,RU,2020-04-20 06:48:08,63.05,179.32,19.81,96,100,15.03,light snow,0.0,0.018110236220472444
318,Te Anau,NZ,2020-04-20 06:48:09,-45.42,167.72,49.12,67,40,5.57,light rain,0.011023622047244096,0.0
319,Mitsamiouli,KM,2020-04-20 06:48:09,-11.38,43.28,87.8,62,20,13.87,few clouds,0.0,0.0
320,Vieira De Leiria,PT,2020-04-20 06:48:09,39.87,-8.93,53.6,93,75,5.82,broken clouds,0.0,0.0
321,Xiashi,CN,2020-04-20 06:48:09,30.54,120.69,68.4,55,30,4.25,scattered clouds,0.0,0.0
322,Bosaso,SO,2020-04-20 06:48:10,11.28,49.18,85.8,61,83,4.0,broken clouds,0.0,0.0
323,Guangyuan,CN,2020-04-20 06:48:10,32.44,105.82,69.01,75,100,1.01,overcast clouds,0.0,0.0
324,Wanlaweyn,SO,2020-04-20 06:48:10,2.62,44.89,83.79,68,100,13.67,moderate rain,0.19055118110236222,0.0
325,Mo I Rana,NO,2020-04-20 06:44:01,66.31,14.14,39.0,93,75,5.82,light intensity drizzle,0.0,0.0
326,Disraeli,CA,2020-04-20 06:48:10,45.9,-71.35,32.0,91,90,14.99,light snow,0.0,0.0
327,Oparino,RU,2020-04-20 06:48:10,59.85,48.28,43.2,58,11,4.03,few clouds,0.0,0.0
328,Wasilla,US,2020-04-20 06:45:13,61.58,-149.44,44.6,75,90,2.08,light rain,0.0,0.0
329,Lerwick,GB,2020-04-20 06:48:11,60.15,-1.15,46.4,70,0,5.82,clear sky,0.0,0.0
330,Pampas,PE,2020-04-20 06:48:11,-12.4,-74.9,45.5,29,78,1.61,broken clouds,0.0,0.0
331,Stornoway,GB,2020-04-20 06:48:11,58.21,-6.39,37.4,93,0,1.12,clear sky,0.0,0.0
332,Cajititlan,MX,2020-04-20 06:48:12,20.43,-103.32,69.8,46,5,3.36,clear sky,0.0,0.0
333,Tsiroanomandidy,MG,2020-04-20 06:48:12,-18.77,46.03,70.81,51,1,6.44,clear sky,0.0,0.0
334,Zyryanka,RU,2020-04-20 06:48:12,65.75,150.85,18.84,84,61,4.27,broken clouds,0.0,0.0
335,Streator,US,2020-04-20 06:48:12,41.12,-88.84,39.0,72,1,4.34,clear sky,0.0,0.0
336,Tukrah,LY,2020-04-20 06:48:12,32.53,20.58,69.78,39,97,19.46,overcast clouds,0.0,0.0
337,Carutapera,BR,2020-04-20 06:48:12,-1.2,-46.02,78.91,86,46,6.4,scattered clouds,0.0,0.0
338,Chifeng,CN,2020-04-20 06:48:13,42.27,118.96,43.2,36,17,27.69,few clouds,0.0,0.0
339,Nyirtelek,HU,2020-04-20 06:48:13,48.02,21.63,48.2,39,0,17.22,clear sky,0.0,0.0
340,Andenes,NO,2020-04-20 06:48:13,69.31,16.12,43.0,81,40,17.22,scattered clouds,0.0,0.0
341,Araripe,BR,2020-04-20 06:48:13,-7.21,-40.05,66.83,81,100,3.36,light rain,0.0673228346456693,0.0
342,Spearfish,US,2020-04-20 06:46:14,44.49,-103.86,41.0,57,1,13.87,clear sky,0.0,0.0
343,Bibiani,GH,2020-04-20 06:48:14,6.46,-2.32,72.23,93,100,1.36,overcast clouds,0.0,0.0
344,Ouallam,NE,2020-04-20 06:48:14,14.32,2.09,82.81,44,5,4.99,clear sky,0.0,0.0
345,Goksun,TR,2020-04-20 06:48:14,38.02,36.5,64.4,59,100,1.12,overcast clouds,0.0,0.0
346,Kalmunai,LK,2020-04-20 06:48:14,7.42,81.82,88.21,64,28,10.33,light rain,0.029527559055118113,0.0
347,Tommot,RU,2020-04-20 06:48:15,58.96,126.29,26.33,82,100,5.88,light snow,0.0,0.007874015748031498
348,Korla,CN,2020-04-20 06:44:22,41.76,86.15,66.18,20,91,3.44,light rain,0.007874015748031498,0.0
349,Hammerfest,NO,2020-04-20 06:48:15,70.66,23.68,41.0,69,75,46.08,shower rain,0.0,0.0
350,Ozernovskiy,RU,2020-04-20 06:48:15,51.5,156.52,28.85,90,62,8.7,broken clouds,0.0,0.0
351,Waitati,NZ,2020-04-20 06:48:15,-45.75,170.57,55.99,58,62,1.01,broken clouds,0.0,0.0
352,Chernyshevskiy,RU,2020-04-20 06:48:16,63.01,112.47,30.74,82,61,4.99,broken clouds,0.0,0.0
353,Naliya,IN,2020-04-20 06:48:16,23.27,68.83,89.83,41,3,16.69,clear sky,0.0,0.0
354,Monrovia,LR,2020-04-20 06:48:16,6.3,-10.8,78.8,94,40,6.17,scattered clouds,0.0,0.0
355,Enterprise,US,2020-04-20 06:48:16,36.03,-115.24,69.8,28,20,6.93,few clouds,0.0,0.0
356,Diego De Almagro,CL,2020-04-20 06:48:16,-26.37,-70.05,55.24,53,0,1.25,clear sky,0.0,0.0
357,Manching,DE,2020-04-20 06:48:17,48.72,11.49,46.4,51,20,14.99,few clouds,0.0,0.0
358,Port Hardy,CA,2020-04-20 06:48:17,50.7,-127.42,50.0,81,75,8.05,broken clouds,0.0,0.0
359,Hay River,CA,2020-04-20 06:48:17,60.82,-115.8,24.8,68,20,12.75,few clouds,0.0,0.0
360,Olafsvik,IS,2020-04-20 06:48:17,64.89,-23.71,44.2,91,100,16.51,overcast clouds,0.0,0.0
361,Doha,QA,2020-04-20 06:48:17,25.29,51.53,87.01,65,81,11.41,light rain,0.011811023622047244,0.0
362,Kungurtug,RU,2020-04-20 06:48:18,50.6,97.52,48.92,25,0,4.34,clear sky,0.0,0.0
363,Adrar,MR,2020-04-20 06:48:18,20.5,-10.07,69.93,21,0,9.15,clear sky,0.0,0.0
364,Digras,IN,2020-04-20 06:48:18,20.12,77.72,103.95,13,34,4.79,scattered clouds,0.0,0.0
365,Cayenne,GF,2020-04-20 06:48:18,4.93,-52.33,75.2,100,100,5.82,moderate rain,0.0,0.0
366,Marsa Matruh,EG,2020-04-20 06:48:19,31.35,27.25,60.8,77,0,5.57,clear sky,0.0,0.0
367,Fallon,US,2020-04-20 06:45:01,39.47,-118.78,46.4,45,1,6.93,clear sky,0.0,0.0
368,Kangaatsiaq,GL,2020-04-20 06:48:19,68.31,-53.46,28.71,88,100,15.77,overcast clouds,0.0,0.0
369,Lima,PE,2020-04-20 06:45:04,-12.04,-77.03,68.0,82,22,4.7,few clouds,0.0,0.0
370,Nagato,JP,2020-04-20 06:48:19,34.38,131.2,59.4,73,33,14.2,scattered clouds,0.0,0.0
371,Severo-Kurilsk,RU,2020-04-20 06:48:20,50.68,156.12,32.2,89,46,9.78,scattered clouds,0.0,0.0
372,Namatanai,PG,2020-04-20 06:48:20,-3.67,152.43,84.07,72,90,5.3,light rain,0.040157480314960636,0.0
373,Da Lat,VN,2020-04-20 06:48:20,11.95,108.44,84.07,24,14,4.32,few clouds,0.0,0.0
374,Maceio,BR,2020-04-20 06:48:20,-9.67,-35.74,78.53,83,70,8.46,light rain,0.0889763779527559,0.0
375,Juneau,US,2020-04-20 06:45:02,58.3,-134.42,44.6,75,20,5.82,few clouds,0.0,0.0
376,Aranos,NA,2020-04-20 06:48:20,-24.13,19.12,69.62,27,0,12.35,clear sky,0.0,0.0
377,Bengkulu,ID,2020-04-20 06:48:21,-3.8,102.27,88.72,59,47,6.26,scattered clouds,0.0,0.0
378,Port Blair,IN,2020-04-20 06:48:21,11.67,92.75,85.21,74,28,8.08,light rain,0.04055118110236221,0.0
379,Yumen,CN,2020-04-20 06:48:21,40.28,97.2,57.97,16,88,15.93,overcast clouds,0.0,0.0
380,Asfi,MA,2020-04-20 06:48:21,32.3,-9.24,58.6,77,24,2.44,few clouds,0.0,0.0
381,Ituango,CO,2020-04-20 06:48:21,7.17,-75.76,60.87,62,94,1.39,overcast clouds,0.0,0.0
382,Teguise,ES,2020-04-20 06:48:22,29.06,-13.56,64.4,68,75,5.82,broken clouds,0.0,0.0
383,Aswan,EG,2020-04-20 06:48:22,24.09,32.91,77.81,29,0,8.5,clear sky,0.0,0.0
384,Vila,PT,2020-04-20 06:48:22,42.03,-8.16,48.2,100,99,4.7,overcast clouds,0.0,0.0
385,Barreiras,BR,2020-04-20 06:48:22,-12.15,-44.99,69.49,81,31,2.86,scattered clouds,0.0,0.0
386,Lingao,CN,2020-04-20 06:48:23,19.91,109.69,81.82,72,32,9.75,scattered clouds,0.0,0.0
387,Nidzica,PL,2020-04-20 06:48:23,53.36,20.43,37.4,100,75,6.93,broken clouds,0.0,0.0
388,Ginda,IN,2020-04-20 06:48:23,30.69,78.49,66.56,17,47,7.52,scattered clouds,0.0,0.0
389,New Amsterdam,GY,2020-04-20 06:48:23,6.25,-57.52,77.47,89,92,12.41,moderate rain,0.212992125984252,0.0
390,Hofn,IS,2020-04-20 06:48:23,64.25,-15.21,44.64,87,93,7.81,overcast clouds,0.0,0.0
391,Brewster,US,2020-04-20 06:48:24,41.4,-73.62,51.8,76,75,4.99,broken clouds,0.0,0.0
392,Jonesboro,US,2020-04-20 06:43:33,35.84,-90.7,52.0,93,1,8.05,clear sky,0.0,0.0
393,Banda Aceh,ID,2020-04-20 06:48:24,5.56,95.32,88.9,64,21,9.4,few clouds,0.0,0.0
394,Ginir,ET,2020-04-20 06:48:24,7.13,40.7,67.69,44,99,1.03,light rain,0.005511811023622048,0.0
395,Jieshi,CN,2020-04-20 06:48:25,22.81,115.83,87.01,69,21,3.0,few clouds,0.0,0.0
396,Quatre Cocos,MU,2020-04-20 06:48:25,-20.21,57.76,77.0,83,75,14.99,light intensity shower rain,0.0,0.0
397,Souillac,MU,2020-04-20 06:48:25,-20.52,57.52,77.0,83,75,14.99,light intensity shower rain,0.0,0.0
398,Pasni,PK,2020-04-20 06:48:26,25.26,63.47,86.76,48,6,5.35,clear sky,0.0,0.0
399,Ulkan,RU,2020-04-20 06:48:26,57.24,107.32,34.25,66,27,8.05,scattered clouds,0.0,0.0
400,Villarrobledo,ES,2020-04-20 06:48:26,39.27,-2.6,44.01,97,0,3.0,clear sky,0.0,0.0
401,Kasane,BW,2020-04-20 06:48:26,-17.82,25.15,66.2,63,2,12.75,clear sky,0.0,0.0
402,Turlock,US,2020-04-20 06:47:31,37.49,-120.85,59.0,62,1,11.41,clear sky,0.0,0.0
403,Madras,IN,2020-04-20 06:45:07,13.09,80.28,91.4,55,40,12.75,scattered clouds,0.0,0.0
404,Veraval,IN,2020-04-20 06:48:27,20.9,70.37,93.9,32,0,13.13,clear sky,0.0,0.0
405,Malino,PH,2020-04-20 06:48:27,15.13,120.67,96.8,44,75,2.24,broken clouds,0.0,0.0
406,Srandakan,ID,2020-04-20 06:48:27,-7.94,110.25,87.12,66,85,3.56,light rain,0.03228346456692913,0.0
407,Tigzirt,DZ,2020-04-20 06:48:28,36.89,4.12,62.38,85,100,20.02,light rain,0.07795275590551182,0.0
408,North Bend,US,2020-04-20 06:48:28,43.41,-124.22,48.2,87,1,5.82,clear sky,0.0,0.0
409,Pacific Grove,US,2020-04-20 06:48:28,36.62,-121.92,57.2,67,90,6.93,overcast clouds,0.0,0.0
410,Olinda,BR,2020-04-20 06:43:37,-8.01,-34.86,78.8,88,40,3.36,scattered clouds,0.0,0.0
411,Fuzhou,CN,2020-04-20 06:48:28,26.06,119.31,69.8,68,90,6.71,overcast clouds,0.0,0.0
412,Goya,AR,2020-04-20 06:48:29,-29.14,-59.26,61.74,72,0,4.94,clear sky,0.0,0.0
413,Kashi,CN,2020-04-20 06:48:29,39.45,75.98,57.2,67,75,11.18,broken clouds,0.0,0.0
414,Geraldton,AU,2020-04-20 06:48:29,-28.77,114.6,75.2,41,0,13.87,clear sky,0.0,0.0
415,Kutum,SD,2020-04-20 06:48:29,14.2,24.67,74.05,13,100,4.92,overcast clouds,0.0,0.0
416,Basoko,CD,2020-04-20 06:48:30,1.24,23.62,73.89,80,95,4.03,overcast clouds,0.0,0.0
417,San Quintin,MX,2020-04-20 06:48:30,30.48,-115.95,59.0,78,89,15.39,overcast clouds,0.0,0.0
418,Cururupu,BR,2020-04-20 06:48:30,-1.83,-44.87,76.75,91,57,3.02,broken clouds,0.0,0.0
419,Takayama,JP,2020-04-20 06:48:30,36.13,137.25,57.99,82,75,18.34,light intensity shower rain,0.0,0.0
420,Labuhan,ID,2020-04-20 06:48:31,-6.88,112.21,87.93,65,48,6.4,light rain,0.042913385826771656,0.0
421,Coquimbo,CL,2020-04-20 06:48:31,-29.95,-71.34,59.0,93,6,2.24,clear sky,0.0,0.0
422,Stokmarknes,NO,2020-04-20 06:48:31,68.56,14.91,43.0,87,100,5.99,overcast clouds,0.0,0.0
423,Fort Pierce,US,2020-04-20 06:48:32,27.45,-80.33,77.0,83,1,6.93,clear sky,0.0,0.0
424,Poum,NC,2020-04-20 06:48:32,-20.23,164.02,80.01,81,95,14.05,light rain,0.027559055118110236,0.0
425,Ourossogui,SN,2020-04-20 06:48:32,15.61,-13.32,78.8,34,89,4.7,overcast clouds,0.0,0.0
426,Vidim,RU,2020-04-20 06:48:32,56.41,103.11,37.8,50,0,6.46,clear sky,0.0,0.0
427,Tarko-Sale,RU,2020-04-20 06:48:32,64.92,77.78,41.0,82,72,13.62,broken clouds,0.0,0.0
428,Nianzishan,CN,2020-04-20 06:48:33,47.52,122.88,27.25,95,100,24.16,snow,0.0,0.12716535433070866
429,Storsteinnes,NO,2020-04-20 06:48:33,69.24,19.23,42.8,60,40,29.97,scattered clouds,0.0,0.0
430,Ixtapa,MX,2020-04-20 06:48:33,20.7,-105.2,73.4,83,75,3.89,broken clouds,0.0,0.0
431,Kalabo,ZM,2020-04-20 06:48:34,-14.97,22.68,66.97,54,14,6.96,few clouds,0.0,0.0
432,Richards Bay,ZA,2020-04-20 06:48:34,-28.78,32.04,70.02,72,1,10.18,clear sky,0.0,0.0
433,Deputatskiy,RU,2020-04-20 06:48:34,69.3,139.9,12.0,88,60,6.06,broken clouds,0.0,0.0
434,Sao Jose Da Coroa Grande,BR,2020-04-20 06:48:34,-8.9,-35.15,79.07,81,47,7.45,moderate rain,0.15354330708661418,0.0
435,Mareeba,AU,2020-04-20 06:48:35,-17.0,145.43,86.0,76,73,8.01,light rain,0.006299212598425198,0.0
436,Nieves,PH,2020-04-20 06:48:35,15.33,120.95,96.8,44,75,2.24,broken clouds,0.0,0.0
437,Maniitsoq,GL,2020-04-20 06:48:35,65.42,-52.9,26.53,88,100,22.79,light snow,0.0,0.004724409448818898
438,La Ronge,CA,2020-04-20 06:48:35,55.1,-105.28,30.2,54,20,9.17,few clouds,0.0,0.0
439,Mabaruma,GY,2020-04-20 06:48:36,8.2,-59.78,75.15,89,74,5.1,broken clouds,0.0,0.0
440,Shingu,JP,2020-04-20 06:48:36,33.73,135.98,68.0,64,75,14.99,broken clouds,0.0,0.0
441,Mount Isa,AU,2020-04-20 06:48:36,-20.73,139.5,96.8,12,48,9.17,scattered clouds,0.0,0.0
442,Guderup,DK,2020-04-20 06:48:36,54.99,9.87,48.0,75,0,4.7,clear sky,0.0,0.0
443,Bhainsdehi,IN,2020-04-20 06:48:36,21.65,77.63,96.26,12,67,9.44,broken clouds,0.0,0.0
444,Buala,SB,2020-04-20 06:48:37,-8.14,159.59,83.97,74,53,3.65,light rain,0.0688976377952756,0.0
445,Corumba,BR,2020-04-20 06:48:37,-19.01,-57.65,70.68,85,1,1.34,clear sky,0.0,0.0
446,Maine-Soroa,NE,2020-04-20 06:48:37,13.21,12.02,81.66,14,51,4.05,broken clouds,0.0,0.0
447,Lethem,GY,2020-04-20 06:48:37,3.38,-59.8,79.14,73,96,6.44,light rain,0.0515748031496063,0.0
448,Ostersund,SE,2020-04-20 06:48:38,63.18,14.64,35.6,80,96,13.87,overcast clouds,0.0,0.0
449,Waddan,LY,2020-04-20 06:48:38,29.16,16.14,79.88,14,92,14.58,overcast clouds,0.0,0.0
450,Marzuq,YE,2020-04-20 06:48:38,14.4,46.47,76.48,41,81,2.19,light rain,0.005118110236220473,0.0
451,Knysna,ZA,2020-04-20 06:48:38,-34.04,23.05,60.8,93,75,1.12,broken clouds,0.0,0.0
452,Bathsheba,BB,2020-04-20 06:48:38,13.22,-59.52,78.8,69,20,19.46,few clouds,0.0,0.0
453,Sanary-Sur-Mer,FR,2020-04-20 06:48:39,43.12,5.8,59.0,91,100,5.01,light rain,0.11023622047244094,0.0
454,Tucuma,BR,2020-04-20 06:48:39,-0.18,-50.05,75.45,92,100,2.17,light rain,0.014960629921259844,0.0
455,Ust-Kut,RU,2020-04-20 06:48:39,56.79,105.77,34.93,64,0,7.65,clear sky,0.0,0.0
456,Mandera,KE,2020-04-20 06:48:39,3.94,41.87,82.38,60,100,13.65,light rain,0.030314960629921263,0.0
457,Galveston,US,2020-04-20 06:48:39,29.37,-94.97,73.0,94,51,7.81,light rain,0.0,0.0
458,Linxia,CN,2020-04-20 06:48:40,35.6,103.21,42.53,40,100,5.3,light rain,0.05039370078740158,0.0
459,Zhob,PK,2020-04-20 06:44:57,31.34,69.45,68.49,23,30,2.84,scattered clouds,0.0,0.0
460,Gaoua,BF,2020-04-20 06:48:40,10.3,-3.25,79.02,65,53,6.17,broken clouds,0.0,0.0
461,Belaya Gora,RU,2020-04-20 06:48:40,68.53,146.42,19.18,93,67,9.28,broken clouds,0.0,0.0
462,Siparia,TT,2020-04-20 06:48:41,10.13,-61.5,77.0,83,20,11.27,few clouds,0.0,0.0
463,Umm Kaddadah,SD,2020-04-20 06:48:41,13.6,26.69,79.99,13,94,16.58,overcast clouds,0.0,0.0
464,Oshakati,NA,2020-04-20 06:48:41,-17.78,15.68,69.8,77,66,2.24,broken clouds,0.0,0.0
465,Amga,RU,2020-04-20 06:48:41,60.9,131.96,25.07,81,85,4.7,overcast clouds,0.0,0.0
466,Nanning,CN,2020-04-20 06:48:41,22.82,108.32,84.2,66,40,6.71,scattered clouds,0.0,0.0
467,Port Moresby,PG,2020-04-20 06:48:42,-9.44,147.18,86.0,79,40,17.22,scattered clouds,0.0,0.0
468,Biao,PH,2020-04-20 06:48:42,7.16,125.52,91.4,59,40,10.29,scattered clouds,0.0,0.0
469,Bandarbeyla,SO,2020-04-20 06:48:42,9.49,50.81,83.8,65,72,2.57,broken clouds,0.0,0.0
470,Gigmoto,PH,2020-04-20 06:48:42,13.78,124.39,82.74,77,100,10.02,overcast clouds,0.0,0.0
471,Evanston,US,2020-04-20 06:48:42,42.04,-87.69,42.01,69,1,2.21,clear sky,0.0,0.0
472,Ust-Kuyga,RU,2020-04-20 06:48:42,70.02,135.6,22.08,92,100,8.21,overcast clouds,0.0,0.0
473,Jalingo,NG,2020-04-20 06:48:43,8.88,11.37,81.0,65,100,10.33,overcast clouds,0.0,0.0
474,Constitucion,CL,2020-04-20 06:48:43,-35.33,-72.42,56.05,67,93,8.37,overcast clouds,0.0,0.0
475,Kishi,NG,2020-04-20 06:48:43,9.08,3.85,76.21,71,100,9.22,overcast clouds,0.0,0.0
476,Sambava,MG,2020-04-20 06:48:43,-14.27,50.17,81.39,68,100,6.98,light rain,0.020866141732283468,0.0
477,Kathu,TH,2020-04-20 06:48:43,7.92,98.33,91.4,59,20,9.17,few clouds,0.0,0.0
478,Wanaka,NZ,2020-04-20 06:45:36,-44.7,169.15,44.73,62,39,5.08,scattered clouds,0.0,0.0
479,Were Ilu,ET,2020-04-20 06:48:44,10.6,39.43,61.56,31,100,1.16,overcast clouds,0.0,0.0
480,Tongzhou,CN,2020-04-20 06:48:44,39.91,116.6,62.01,13,2,33.55,clear sky,0.0,0.0
481,Barra Do Garcas,BR,2020-04-20 06:48:44,-15.89,-52.26,71.28,83,96,2.33,light rain,0.044094488188976384,0.0
482,Seoul,KR,2020-04-20 06:48:45,37.57,126.98,55.4,87,90,3.36,mist,0.0,0.0
483,Saint-Augustin,CA,2020-04-20 06:48:45,51.23,-58.65,28.47,98,100,15.59,snow,0.0,0.15118110236220472
484,Tashara,RU,2020-04-20 06:48:45,55.52,83.51,63.05,40,30,0.69,scattered clouds,0.0,0.0
485,Marsh Harbour,BS,2020-04-20 06:48:05,26.54,-77.06,78.57,82,77,14.85,broken clouds,0.0,0.0
486,Nago,JP,2020-04-20 06:48:46,26.59,127.98,71.6,73,90,4.7,overcast clouds,0.0,0.0
487,Viedma,AR,2020-04-20 06:48:46,-40.81,-63.0,60.71,50,89,8.19,overcast clouds,0.0,0.0
488,Simbahan,PH,2020-04-20 06:48:46,6.3,120.58,85.37,66,67,4.41,light rain,0.006692913385826772,0.0
489,Cangucu,BR,2020-04-20 06:48:46,-31.39,-52.68,64.99,94,0,3.13,clear sky,0.0,0.0
490,Margate,GB,2020-04-20 06:48:46,51.38,1.39,52.0,68,0,8.01,clear sky,0.0,0.0
491,Waingapu,ID,2020-04-20 06:48:47,-9.66,120.26,85.69,64,54,6.29,broken clouds,0.0,0.0
492,Sheboygan,US,2020-04-20 06:48:47,43.73,-87.93,35.01,80,1,5.75,clear sky,0.0,0.0
493,Kundiawa,PG,2020-04-20 06:48:47,-6.02,144.97,74.93,40,27,3.74,light rain,0.11141732283464569,0.0
494,Saryozek,KZ,2020-04-20 06:48:47,44.36,77.98,68.72,19,0,7.85,clear sky,0.0,0.0
495,Mahibadhoo,MV,2020-04-20 06:48:47,3.78,72.97,85.84,72,78,8.43,light rain,0.005905511811023622,0.0
496,Amazar,RU,2020-04-20 06:48:48,53.86,120.88,27.46,70,100,16.71,overcast clouds,0.0,0.0
497,Phuket,TH,2020-04-20 06:48:48,8.0,98.25,91.4,59,20,9.17,few clouds,0.0,0.0
498,Khiri Mat,TH,2020-04-20 06:48:48,16.83,99.8,107.01,29,8,7.09,clear sky,0.0,0.0
499,Tara,RU,2020-04-20 06:48:48,56.89,74.37,56.97,40,24,2.37,few clouds,0.0,0.0
500,Itoman,JP,2020-04-20 06:48:48,26.12,127.67,71.6,73,75,10.29,broken clouds,0.0,0.0
501,Hurghada,EG,2020-04-20 06:48:49,27.26,33.81,75.2,36,0,10.29,clear sky,0.0,0.0
502,Oktyabrskoye,RU,2020-04-20 06:48:49,43.06,44.74,60.01,54,20,4.47,few clouds,0.0,0.0
503,Lieksa,FI,2020-04-20 06:48:49,63.32,30.02,37.35,85,100,6.13,overcast clouds,0.0,0.0
504,Tual,ID,2020-04-20 06:48:49,-5.67,132.75,85.71,69,31,6.73,light rain,0.0610236220472441,0.0
505,Muros,ES,2020-04-20 06:48:49,42.78,-9.06,52.0,94,99,6.46,light rain,0.005511811023622048,0.0
506,Shimoda,JP,2020-04-20 06:48:49,34.67,138.95,55.99,93,75,17.22,broken clouds,0.0,0.0
507,Guerrero Negro,MX,2020-04-20 06:46:06,27.98,-114.06,60.19,77,99,16.4,overcast clouds,0.0,0.0
508,Jumla,NP,2020-04-20 06:48:50,29.27,82.18,59.56,22,67,5.41,light rain,0.060629921259842526,0.0
509,Kendari,ID,2020-04-20 06:48:50,-3.94,122.5,89.91,52,17,4.97,few clouds,0.0,0.0
510,Akdepe,TM,2020-04-20 06:48:50,42.06,59.38,84.2,23,81,6.93,broken clouds,0.0,0.0
511,Outjo,NA,2020-04-20 06:48:50,-20.12,16.15,64.4,72,71,4.7,broken clouds,0.0,0.0
512,Pakxan,LA,2020-04-20 06:48:51,18.38,103.66,100.99,43,4,5.95,clear sky,0.0,0.0
513,Andros Town,BS,2020-04-20 06:48:51,24.7,-77.77,80.6,69,20,14.99,few clouds,0.0,0.0
514,Fort-Shevchenko,KZ,2020-04-20 06:48:51,44.51,50.26,61.5,48,6,11.88,clear sky,0.0,0.0
515,Uchiza,PE,2020-04-20 06:48:51,-8.46,-76.46,69.55,56,23,2.44,few clouds,0.0,0.0
516,Tornio,FI,2020-04-20 06:48:51,65.85,24.15,41.0,75,75,6.93,broken clouds,0.0,0.0
517,Luganville,VU,2020-04-20 06:48:51,-15.53,167.17,82.4,78,75,1.59,broken clouds,0.0,0.0
518,Mwinilunga,ZM,2020-04-20 06:48:52,-11.74,24.43,62.37,58,11,7.7,few clouds,0.0,0.0
519,Pemangkat,ID,2020-04-20 06:48:52,1.17,108.97,83.26,70,55,7.4,broken clouds,0.0,0.0
520,Arlit,NE,2020-04-20 06:48:52,18.74,7.39,83.25,12,0,10.33,clear sky,0.0,0.0
521,Roebourne,AU,2020-04-20 06:48:52,-20.78,117.13,90.0,45,94,12.03,overcast clouds,0.0,0.0
522,Assare,BR,2020-04-20 06:48:52,-6.87,-39.88,68.61,85,92,2.06,light rain,0.10905511811023623,0.0
523,Alamosa,US,2020-04-20 06:48:53,37.47,-105.87,37.4,69,20,8.05,few clouds,0.0,0.0
524,Shepsi,RU,2020-04-20 06:48:53,44.04,39.15,58.89,54,74,12.66,broken clouds,0.0,0.0
525,Baghdad,IQ,2020-04-20 06:45:47,33.34,44.4,82.4,37,0,10.29,clear sky,0.0,0.0
526,Waipawa,NZ,2020-04-20 06:48:53,-41.41,175.52,57.0,73,90,1.99,overcast clouds,0.0,0.0
527,Atar,MR,2020-04-20 06:44:24,20.52,-13.05,65.21,26,0,11.81,clear sky,0.0,0.0
528,Lagoa,PT,2020-04-20 06:48:53,39.05,-27.98,56.62,57,19,9.51,few clouds,0.0,0.0
529,Derzhavinsk,KZ,2020-04-20 06:48:54,51.1,66.32,70.59,28,92,17.81,overcast clouds,0.0,0.0
530,Dembi Dolo,ET,2020-04-20 06:48:54,8.53,34.8,70.12,35,98,1.81,overcast clouds,0.0,0.0
